[
  {
    "id": "evt_001",
    "title": "Essential Training | Chicago, IL | Oct 10-11, 2025",
    "status": "Go",
    "startDate": "2025-10-10T09:00:00Z",
    "endDate": "2025-10-11T17:00:00Z",
    "location": { "city": "Chicago", "state": "IL", "venueId": "venue_001" },
    "courseType": "Essential In-Person",
    "capacity": 25,
    "enrolledCount": 18,
    "revenue": 17910,
    "instructorIds": ["inst_01", "inst_02"]
  },
  {
    "id": "evt_002",
    "title": "Advanced Training | New York, NY | Nov 5-6, 2025",
    "status": "Go",
    "startDate": "2025-11-05T09:00:00Z",
    "endDate": "2025-11-06T17:00:00Z",
    "location": { "city": "New York", "state": "NY", "venueId": "venue_002" },
    "courseType": "Advanced In-Person",
    "capacity": 20,
    "enrolledCount": 19,
    "revenue": 28405,
    "instructorIds": ["inst_03"]
  },
  {
    "id": "evt_003",
    "title": "Essential Training | Los Angeles, CA | Dec 1-2, 2025",
    "status": "At Risk",
    "startDate": "2025-12-01T09:00:00Z",
    "endDate": "2025-12-02T17:00:00Z",
    "location": { "city": "Los Angeles", "state": "CA", "venueId": "venue_003" },
    "courseType": "Essential In-Person",
    "capacity": 25,
    "enrolledCount": 7,
    "revenue": 6965,
    "instructorIds": ["inst_04", "inst_05"]
  },
  {
    "id": "evt_004",
    "title": "Virtual Essential Training | Jan 15-16, 2026",
    "status": "Go",
    "startDate": "2026-01-15T10:00:00Z",
    "endDate": "2026-01-16T18:00:00Z",
    "location": { "city": "Virtual", "state": "Online", "venueId": null },
    "courseType": "Essential Virtual",
    "capacity": 50,
    "enrolledCount": 45,
    "revenue": 35955,
    "instructorIds": ["inst_06", "inst_07"]
  },
  {
    "id": "evt_005",
    "title": "Essential Training | Austin, TX | Feb 20-21, 2026",
    "status": "Go",
    "startDate": "2026-02-20T09:00:00Z",
    "endDate": "2026-02-21T17:00:00Z",
    "location": { "city": "Austin", "state": "TX", "venueId": "venue_004" },
    "courseType": "Essential In-Person",
    "capacity": 25,
    "enrolledCount": 25,
    "revenue": 24875,
    "instructorIds": ["inst_01"]
  },
  {
    "id": "evt_006",
    "title": "Advanced Training | San Francisco, CA | Mar 12-13, 2026",
    "status": "Go",
    "startDate": "2026-03-12T09:00:00Z",
    "endDate": "2026-03-13T17:00:00Z",
    "location": { "city": "San Francisco", "state": "CA", "venueId": "venue_005" },
    "courseType": "Advanced In-Person",
    "capacity": 20,
    "enrolledCount": 15,
    "revenue": 22425,
    "instructorIds": ["inst_02", "inst_03"]
  },
  {
    "id": "evt_007",
    "title": "Essential Training | Seattle, WA | Apr 8-9, 2026",
    "status": "Go",
    "startDate": "2026-04-08T09:00:00Z",
    "endDate": "2026-04-09T17:00:00Z",
    "location": { "city": "Seattle", "state": "WA", "venueId": "venue_006" },
    "courseType": "Essential In-Person",
    "capacity": 25,
    "enrolledCount": 21,
    "revenue": 20895,
    "instructorIds": ["inst_04"]
  },
  {
    "id": "evt_008",
    "title": "Essential Training | Boston, MA | May 14-15, 2026",
    "status": "At Risk",
    "startDate": "2026-05-14T09:00:00Z",
    "endDate": "2026-05-15T17:00:00Z",
    "location": { "city": "Boston", "state": "MA", "venueId": "venue_007" },
    "courseType": "Essential In-Person",
    "capacity": 25,
    "enrolledCount": 9,
    "revenue": 8955,
    "instructorIds": ["inst_05", "inst_06"]
  },
  {
    "id": "evt_009",
    "title": "Advanced Training | Miami, FL | Jun 18-19, 2026",
    "status": "Go",
    "startDate": "2026-06-18T09:00:00Z",
    "endDate": "2026-06-19T17:00:00Z",
    "location": { "city": "Miami", "state": "FL", "venueId": "venue_008" },
    "courseType": "Advanced In-Person",
    "capacity": 20,
    "enrolledCount": 12,
    "revenue": 17940,
    "instructorIds": ["inst_07"]
  },
  {
    "id": "evt_010",
    "title": "Virtual Advanced Training | Jul 22-23, 2026",
    "status": "Go",
    "startDate": "2026-07-22T10:00:00Z",
    "endDate": "2026-07-23T18:00:00Z",
    "location": { "city": "Virtual", "state": "Online", "venueId": null },
    "courseType": "Advanced Virtual",
    "capacity": 40,
    "enrolledCount": 33,
    "revenue": 41217,
    "instructorIds": ["inst_01", "inst_02"]
  },
  {
    "id": "evt_011",
    "title": "Essential Training | Chicago, IL | Aug 20-21, 2026",
    "status": "Go",
    "startDate": "2026-08-20T09:00:00Z",
    "endDate": "2026-08-21T17:00:00Z",
    "location": { "city": "Chicago", "state": "IL", "venueId": "venue_009" },
    "courseType": "Essential In-Person",
    "capacity": 25,
    "enrolledCount": 16,
    "revenue": 15920,
    "instructorIds": ["inst_03", "inst_04"]
  },
  {
    "id": "evt_012",
    "title": "Essential Training | New York, NY | Sep 17-18, 2026",
    "status": "Go",
    "startDate": "2026-09-17T09:00:00Z",
    "endDate": "2026-09-18T17:00:00Z",
    "location": { "city": "New York", "state": "NY", "venueId": "venue_010" },
    "courseType": "Essential In-Person",
    "capacity": 25,
    "enrolledCount": 22,
    "revenue": 21890,
    "instructorIds": ["inst_05"]
  },
  {
    "id": "evt_013",
    "title": "Completed Training | Chicago, IL | Sep 1-2, 2025",
    "status": "Completed",
    "startDate": "2025-09-01T09:00:00Z",
    "endDate": "2025-09-02T17:00:00Z",
    "location": { "city": "Chicago", "state": "IL", "venueId": "venue_001" },
    "courseType": "Essential In-Person",
    "capacity": 25,
    "enrolledCount": 24,
    "revenue": 23880,
    "instructorIds": ["inst_01", "inst_02"]
  },
  {
    "id": "evt_014",
    "title": "Completed Training | New York, NY | Aug 15-16, 2025",
    "status": "Completed",
    "startDate": "2025-08-15T09:00:00Z",
    "endDate": "2025-08-16T17:00:00Z",
    "location": { "city": "New York", "state": "NY", "venueId": "venue_002" },
    "courseType": "Advanced In-Person",
    "capacity": 20,
    "enrolledCount": 20,
    "revenue": 29900,
    "instructorIds": ["inst_03"]
  },
  {
    "id": "evt_015",
    "title": "Completed Virtual Training | Jul 10-11, 2025",
    "status": "Completed",
    "startDate": "2025-07-10T10:00:00Z",
    "endDate": "2025-07-11T18:00:00Z",
    "location": { "city": "Virtual", "state": "Online", "venueId": null },
    "courseType": "Essential Virtual",
    "capacity": 50,
    "enrolledCount": 48,
    "revenue": 38352,
    "instructorIds": ["inst_06", "inst_07"]
  },
  {
    "id": "evt_016",
    "title": "Essential Training | Los Angeles, CA | Oct 2-3, 2026",
    "status": "Go",
    "startDate": "2026-10-02T09:00:00Z",
    "endDate": "2026-10-03T17:00:00Z",
    "location": { "city": "Los Angeles", "state": "CA", "venueId": "venue_003" },
    "courseType": "Essential In-Person",
    "capacity": 25,
    "enrolledCount": 14,
    "revenue": 13930,
    "instructorIds": ["inst_04", "inst_05"]
  },
  {
    "id": "evt_017",
    "title": "Advanced Training | Austin, TX | Nov 19-20, 2026",
    "status": "Go",
    "startDate": "2026-11-19T09:00:00Z",
    "endDate": "2026-11-20T17:00:00Z",
    "location": { "city": "Austin", "state": "TX", "venueId": "venue_004" },
    "courseType": "Advanced In-Person",
    "capacity": 20,
    "enrolledCount": 18,
    "revenue": 26910,
    "instructorIds": ["inst_01", "inst_07"]
  }
]